City_ID,City,Country,Lat,Lng,Max Temp,Humidity,Cloudiness,Wind Speed,Current Description
0,Port Alfred,ZA,-33.5906,26.891,64.6,35,0,8.68,clear sky
1,Nanakuli,US,21.3906,-158.1547,84.15,56,40,18.12,scattered clouds
2,Yumen,CN,40.2833,97.2,58.3,23,78,12.15,broken clouds
3,Souillac,MU,-20.5167,57.5167,71.37,84,58,11.56,light rain
4,Hobart,AU,-42.8794,147.3294,52.27,82,75,1.01,light rain
5,Pangai,TO,-19.8,-174.35,77.61,70,4,15.37,clear sky
6,Punta Arenas,CL,-53.15,-70.9167,41.11,75,0,11.83,clear sky
7,Tautira,PF,-17.7333,-149.15,86.02,73,47,12.01,scattered clouds
8,Bredasdorp,ZA,-34.5322,20.0403,58.28,34,4,6.64,clear sky
9,Abu Dhabi,AE,24.4667,54.3667,91.42,79,0,10.04,clear sky
10,Salinopolis,BR,-0.6136,-47.3561,78.15,86,43,9.37,scattered clouds
11,Opuwo,NA,-18.0607,13.84,56.95,44,1,4.59,clear sky
12,Praia,CV,14.9215,-23.5087,73.94,73,75,18.41,broken clouds
13,Hermanus,ZA,-34.4187,19.2345,65.89,43,1,12.03,clear sky
14,Axim,GH,4.8699,-2.2405,79.29,81,11,9.37,few clouds
15,Bad Freienwalde,DE,52.7873,14.0304,69.3,48,25,1.01,scattered clouds
16,Taixing,CN,32.1667,120.0136,76.96,61,55,8.72,light rain
17,Alta Floresta,BR,-9.8756,-56.0861,77.83,63,63,3.76,broken clouds
18,Mataura,NZ,-46.1927,168.8643,49.48,83,72,1.99,broken clouds
19,Korla,CN,41.7597,86.1469,71.15,38,36,10.4,scattered clouds
20,Ushuaia,AR,-54.8,-68.3,44.26,57,40,12.66,scattered clouds
21,Mbaiki,CF,3.8678,17.9892,66.99,97,94,0.36,overcast clouds
22,Yucca Valley,US,34.1142,-116.4322,90.54,17,5,8.99,clear sky
23,Fortuna,US,40.5982,-124.1573,72.48,55,1,5.01,clear sky
24,Busselton,AU,-33.65,115.3333,46.09,77,0,8.39,clear sky
25,Rikitea,PF,-23.1203,-134.9692,76.64,84,98,15.88,overcast clouds
26,New Norfolk,AU,-42.7826,147.0587,51.91,78,100,1.99,light rain
27,Oktyabrskoye,RU,43.0645,44.7417,55.54,100,95,4.56,overcast clouds
28,Atuona,PF,-9.8,-139.0333,79.93,64,63,6.69,broken clouds
29,Narsaq,GL,60.9167,-46.05,55.62,64,100,1.34,overcast clouds
30,Albany,US,42.6001,-73.9662,90.25,65,45,7.47,scattered clouds
31,Hilo,US,19.7297,-155.09,80.33,72,90,13.8,light rain
32,Kruisfontein,ZA,-34.0033,24.7314,57.43,21,3,8.28,clear sky
33,Riva,US,38.9521,-76.578,94.84,61,39,7.0,scattered clouds
34,Xuddur,SO,4.1213,43.8894,73.67,74,37,20.09,scattered clouds
35,Chokurdakh,RU,70.6333,147.9167,38.05,71,99,6.13,overcast clouds
36,Vanimo,PG,-2.6741,141.3028,78.01,89,100,5.7,heavy intensity rain
37,Diamantina,BR,-18.2494,-43.6003,63.0,76,99,4.94,overcast clouds
38,Puerto Ayora,EC,-0.7393,-90.3518,80.56,89,35,5.99,scattered clouds
39,Lorengau,PG,-2.0226,147.2712,81.77,74,92,5.61,overcast clouds
40,Torbay,CA,47.6666,-52.7314,47.28,86,91,4.0,overcast clouds
41,Iranshahr,IR,27.2025,60.6848,90.61,45,0,6.46,clear sky
42,Jamestown,US,42.097,-79.2353,83.52,50,1,6.91,clear sky
43,Casselman,CA,45.3168,-75.0826,86.04,74,26,15.08,scattered clouds
44,Tiksi,RU,71.6872,128.8694,44.6,62,100,1.45,overcast clouds
45,Pindwara,IN,24.8,73.0667,81.54,57,41,5.06,scattered clouds
46,Krasnoselkup,RU,65.7,82.4667,32.77,80,41,7.02,scattered clouds
47,Yellowknife,CA,62.456,-114.3525,50.32,55,100,5.99,overcast clouds
48,Bluff,NZ,-46.6,168.3333,49.8,85,66,9.24,broken clouds
49,Dunedin,NZ,-45.8742,170.5036,49.8,89,98,1.99,overcast clouds
50,Tahta,EG,26.7693,31.5021,79.34,22,5,14.05,clear sky
51,Mahebourg,MU,-20.4081,57.7,71.26,83,36,12.62,light rain
52,Sisimiut,GL,66.9395,-53.6735,43.0,82,100,3.18,overcast clouds
53,Otradnoye,RU,59.7775,30.8181,60.85,80,70,3.42,broken clouds
54,Grindavik,IS,63.8424,-22.4338,48.67,87,75,14.79,broken clouds
55,Ponta Do Sol,PT,32.6667,-17.1,66.83,75,3,4.79,clear sky
56,Tasiilaq,GL,65.6145,-37.6368,41.16,91,98,5.12,overcast clouds
57,Asau,RO,46.4333,26.4,55.96,80,4,4.63,clear sky
58,Tuktoyaktuk,CA,69.4541,-133.0374,36.72,74,14,10.85,few clouds
59,Upernavik,GL,72.7868,-56.1549,37.89,84,70,3.83,broken clouds
60,Catamarca,AR,-28.4696,-65.7852,64.49,69,26,6.85,scattered clouds
61,Norman Wells,CA,65.282,-126.8329,48.24,81,75,4.61,broken clouds
62,Balaghat,IN,21.8,80.1833,84.2,55,5,1.99,clear sky
63,Mountain Home,US,43.133,-115.6912,76.95,14,1,3.24,clear sky
64,Vaini,TO,-21.2,-175.2,77.16,78,75,13.8,broken clouds
65,Port Elizabeth,ZA,-33.918,25.5701,63.3,27,0,10.16,clear sky
66,Vallenar,CL,-28.5708,-70.7581,64.09,54,0,4.36,clear sky
67,East London,ZA,-33.0153,27.9116,62.58,39,0,9.62,clear sky
68,Tuatapere,NZ,-46.1333,167.6833,49.82,86,20,4.18,few clouds
69,Avarua,CK,-21.2078,-159.775,78.85,57,75,3.44,broken clouds
70,Coihaique,CL,-45.5752,-72.0662,44.55,76,75,6.91,light rain
71,Vostok,RU,46.4856,135.8833,55.89,70,79,3.22,broken clouds
72,Chuy,UY,-33.6971,-53.4616,50.77,79,98,5.32,overcast clouds
73,Luganville,VU,-15.5333,167.1667,77.4,83,100,11.36,overcast clouds
74,Taoudenni,ML,22.6783,-3.9836,103.03,8,89,3.96,overcast clouds
75,Kapaa,US,22.0752,-159.319,82.72,69,40,4.0,scattered clouds
76,Providencia,MX,28.7167,-111.5833,102.61,22,11,8.99,few clouds
77,Bardiyah,LY,31.7561,25.0865,69.73,75,1,8.93,clear sky
78,Pisco,PE,-13.7,-76.2167,66.02,77,0,8.05,clear sky
79,Paamiut,GL,61.994,-49.6678,38.21,98,100,1.5,moderate rain
80,Hithadhoo,MV,-0.6,73.0833,82.65,73,9,12.03,clear sky
81,Labuhan,ID,-6.8844,112.2051,77.27,87,16,5.73,few clouds
82,Sandnessjoen,NO,66.0217,12.6316,59.58,94,100,12.08,heavy intensity rain
83,Dalby,AU,-27.1833,151.2667,53.98,69,0,3.36,clear sky
84,Kapuskasing,CA,49.4169,-82.4331,85.84,45,99,12.03,overcast clouds
85,Makakilo City,US,21.3469,-158.0858,82.72,53,40,12.66,scattered clouds
86,Guerrero Negro,MX,27.9769,-114.0611,71.19,57,83,16.11,broken clouds
87,Bethel,US,41.3712,-73.414,92.48,51,1,9.22,clear sky
88,Ribeira Grande,PT,38.5167,-28.7,65.21,87,100,7.72,overcast clouds
89,Adrar,MR,20.5022,-10.0711,96.75,12,86,12.71,overcast clouds
90,Lebu,CL,-37.6167,-73.65,49.46,77,96,3.38,overcast clouds
91,Cabo San Lucas,MX,22.8909,-109.9124,100.81,45,1,10.36,clear sky
92,Vila Franca Do Campo,PT,37.7167,-25.4333,64.81,85,99,2.73,overcast clouds
93,Bassano,CA,50.7834,-112.4685,62.64,35,78,5.57,broken clouds
94,Ilo,PE,-17.6394,-71.3375,63.12,82,17,4.97,few clouds
95,Hofn,IS,64.2539,-15.2082,47.1,95,94,12.33,overcast clouds
96,Hasaki,JP,35.7333,140.8333,70.29,84,100,1.79,overcast clouds
97,Kalmunai,LK,7.4167,81.8167,80.76,78,97,3.15,overcast clouds
98,Leningradskiy,RU,69.3833,178.4167,40.57,77,14,13.73,few clouds
99,Kahului,US,20.8947,-156.47,86.02,66,20,26.46,few clouds
100,Barrow,US,71.2906,-156.7887,32.02,86,90,13.8,mist
101,West Lafayette,US,40.4259,-86.9081,83.71,56,92,8.01,overcast clouds
102,Salalah,OM,17.0151,54.0924,84.29,89,75,8.05,broken clouds
103,Bachaquero,VE,9.9694,-71.1494,81.37,73,100,3.36,overcast clouds
104,Saskylakh,RU,71.9167,114.0833,38.26,60,72,4.29,broken clouds
105,Havre,FR,49.5833,0.3333,55.44,94,0,2.91,clear sky
106,Cidreira,BR,-30.1811,-50.2056,63.14,76,100,10.98,overcast clouds
107,Grand Baie,MU,-20.0182,57.5802,71.46,84,10,1.99,clear sky
108,Chongwe,ZM,-15.3292,28.682,53.56,70,54,8.12,broken clouds
109,Charapan,MX,19.6667,-102.2333,63.99,81,100,4.16,overcast clouds
110,Khatanga,RU,71.9667,102.5,33.93,93,96,6.98,overcast clouds
111,Okha,RU,53.5739,142.9478,36.63,97,100,13.6,overcast clouds
112,Maraa,BR,-1.8333,-65.3667,76.62,94,99,2.44,overcast clouds
113,Ancud,CL,-41.8697,-73.8203,52.23,83,100,16.13,light rain
114,Nouadhibou,MR,20.931,-17.0347,66.34,84,93,23.94,overcast clouds
115,Georgetown,MY,5.4112,100.3354,79.9,90,20,2.39,few clouds
116,Laguna,US,38.421,-121.4238,94.44,30,1,5.99,clear sky
117,Luderitz,NA,-26.6481,15.1594,69.28,31,0,9.31,clear sky
118,Shitanjing,CN,39.2342,106.3439,64.67,51,90,9.06,overcast clouds
119,Bowen,AU,-20.0167,148.2333,65.82,77,86,10.76,overcast clouds
120,Pecos,US,31.4229,-103.4932,102.29,10,1,4.61,clear sky
121,Cape Town,ZA,-33.9258,18.4232,72.01,27,0,12.48,clear sky
122,College,US,64.8569,-147.8028,69.75,37,75,5.75,broken clouds
123,Seymchan,RU,62.8833,152.4333,56.21,53,94,9.08,overcast clouds
124,Yining,CN,29.0361,114.5636,68.18,81,100,0.65,overcast clouds
125,Nyurba,RU,63.2842,118.3319,47.97,74,100,10.42,light rain
126,Batagay-Alyta,RU,67.8006,130.4114,47.17,60,95,5.17,overcast clouds
127,Oktyabrskiy,RU,54.4815,53.471,54.16,78,4,1.77,clear sky
128,Bonthe,SL,7.5264,-12.505,80.08,87,99,6.62,light rain
129,Arraial Do Cabo,BR,-22.9661,-42.0278,74.93,84,100,19.8,overcast clouds
130,Ust-Uda,RU,54.1742,103.0304,44.02,91,37,3.44,scattered clouds
131,Xinmin,CN,41.9908,122.8253,62.85,61,0,5.41,clear sky
132,Tiznit,MA,29.5833,-9.5,69.76,62,100,1.83,overcast clouds
133,Tamuin,MX,21.9833,-98.75,103.86,26,38,9.31,scattered clouds
134,Batagay,RU,67.6333,134.6333,52.16,43,81,6.8,broken clouds
135,Pangnirtung,CA,66.1451,-65.7125,34.27,90,21,3.49,few clouds
136,Puro,PH,12.4841,123.3827,80.38,83,100,5.86,light rain
137,Tual,ID,-5.6667,132.75,81.27,77,100,14.99,overcast clouds
138,Uyskoye,RU,54.3775,60.0047,53.67,58,55,3.04,broken clouds
139,San Cristobal,VE,7.7669,-72.225,73.58,92,100,2.95,overcast clouds
140,Thompson,CA,55.7435,-97.8558,69.57,48,100,8.59,overcast clouds
141,Floro,NO,61.5996,5.0328,55.47,87,20,8.05,few clouds
142,Lompoc,US,34.6391,-120.4579,77.68,74,90,5.99,overcast clouds
143,Victoria,HK,22.2855,114.1577,82.38,87,41,5.01,scattered clouds
144,Svetlyy,RU,54.675,20.1347,51.85,71,59,4.81,broken clouds
145,Constitucion,CL,-35.3333,-72.4167,52.45,71,100,8.79,overcast clouds
146,Valparaiso,CL,-33.0393,-71.6273,55.47,64,0,5.75,clear sky
147,Balykshi,KZ,47.0667,51.8667,62.6,42,40,2.24,scattered clouds
148,Yar-Sale,RU,66.8333,70.8333,34.56,90,57,8.79,broken clouds
149,Sri Aman,MY,1.2376,111.4621,72.43,98,100,1.92,overcast clouds
150,Jena,DE,50.9333,11.5833,65.73,86,100,1.01,overcast clouds
151,Bonfim,BR,3.0833,-59.95,79.41,80,64,6.06,broken clouds
152,Gat,IL,31.61,34.7642,70.48,72,0,1.66,clear sky
153,Sutton Coldfield,GB,52.5667,-1.8167,60.53,91,40,2.3,scattered clouds
154,Abapo,BO,-18.8333,-63.4667,66.83,74,82,3.0,broken clouds
155,Bambous Virieux,MU,-20.3428,57.7575,71.22,83,32,12.71,light rain
156,Port Lincoln,AU,-34.7333,135.8667,60.46,49,99,24.23,overcast clouds
157,Butaritari,KI,3.0707,172.7902,82.4,73,13,7.96,light rain
158,Lavrentiya,RU,65.5833,-171.0,34.61,92,100,3.6,light rain
159,Port Macquarie,AU,-31.4333,152.9167,48.16,65,4,4.88,clear sky
160,Itagi,BR,-14.1628,-40.0061,68.38,98,46,0.94,scattered clouds
161,Pandan,PH,14.0453,124.1694,80.2,82,100,3.83,overcast clouds
162,Port Blair,IN,11.6667,92.75,83.88,76,100,12.15,moderate rain
163,Hammerfest,NO,70.6634,23.6821,39.65,81,0,6.91,clear sky
164,Plouzane,FR,48.3833,-4.6167,55.72,87,90,8.05,overcast clouds
165,Glendive,US,47.1053,-104.7125,77.7,18,1,16.11,clear sky
166,Vinh,VN,18.6667,105.6667,78.55,85,100,4.79,overcast clouds
167,Dikson,RU,73.5069,80.5464,29.41,90,100,11.92,overcast clouds
168,Samba,IN,32.5667,75.1167,86.81,35,6,3.91,clear sky
169,Bathsheba,BB,13.2167,-59.5167,81.21,69,20,20.56,few clouds
170,Longyearbyen,SJ,78.2186,15.6401,39.04,65,0,12.66,clear sky
171,Madang,PG,-5.2246,145.7966,76.6,90,100,2.37,overcast clouds
172,Barcelos,PT,41.5388,-8.6151,66.92,85,4,2.33,clear sky
173,Alofi,NU,-19.0595,-169.9187,76.82,59,60,10.31,broken clouds
174,Saint George,US,37.1041,-113.5841,102.67,10,1,8.99,clear sky
175,Te Anau,NZ,-45.4167,167.7167,39.78,89,15,1.19,few clouds
176,Upata,VE,8.0086,-62.3989,74.7,89,50,6.11,scattered clouds
177,Mahajanga,MG,-15.7167,46.3167,75.22,78,20,3.44,few clouds
178,Umm Lajj,SA,25.0213,37.2685,82.78,51,0,11.63,clear sky
179,Manta,EC,-0.95,-80.7333,74.98,83,90,16.11,overcast clouds
180,Mount Isa,AU,-20.7333,139.5,56.97,47,0,4.61,clear sky
181,Yomou,GN,7.5603,-9.2653,72.28,96,36,2.84,light rain
182,Pincher Creek,CA,49.4833,-113.952,55.27,34,100,14.54,overcast clouds
183,Samarai,PG,-10.6167,150.6667,78.66,87,100,15.9,overcast clouds
184,Nyrob,RU,60.733,56.7202,52.43,79,94,2.08,overcast clouds
185,Ilulissat,GL,69.2167,-51.1,39.22,81,83,4.61,broken clouds
186,Muros,ES,42.7762,-9.0603,61.09,78,53,10.31,broken clouds
187,Queanbeyan,AU,-35.35,149.2333,43.66,95,90,2.3,mist
188,Sikonge,TZ,-5.6333,32.7667,68.5,54,80,5.03,broken clouds
189,Flin Flon,CA,54.7682,-101.865,53.87,86,90,10.83,overcast clouds
190,Belmonte,BR,-15.8631,-38.8828,77.5,87,12,6.82,few clouds
191,Salekhard,RU,66.53,66.6019,33.78,71,4,6.11,clear sky
192,Invermere,CA,50.5167,-116.0354,61.56,46,98,3.0,overcast clouds
193,Evensk,RU,61.95,159.2333,43.03,83,100,5.61,light rain
194,Oranjemund,NA,-28.55,16.4333,66.83,33,0,7.92,clear sky
195,Rundu,NA,-17.9333,19.7667,49.98,56,2,6.93,clear sky
196,Uruguaiana,BR,-29.7547,-57.0883,58.93,82,20,14.97,few clouds
197,San Jose,US,37.3394,-121.895,85.77,40,20,14.97,few clouds
198,Yulara,AU,-25.2406,130.9889,39.04,75,31,5.75,scattered clouds
199,General Roca,AR,-39.0333,-67.5833,50.4,47,100,7.16,overcast clouds
200,Mayo,US,38.8876,-76.5119,94.8,59,1,1.99,clear sky
201,Nikolskoye,RU,59.7035,30.7861,60.69,79,66,3.71,broken clouds
202,Esperance,AU,-33.8667,121.9,58.28,60,100,29.04,overcast clouds
203,Broome,US,42.2506,-75.833,88.61,47,40,3.0,scattered clouds
204,Iqaluit,CA,63.7506,-68.5145,36.7,74,40,5.01,scattered clouds
205,Parati,BR,-23.2178,-44.7131,70.39,75,77,3.62,broken clouds
206,Mancio Lima,BR,-7.6142,-72.8958,76.35,93,90,1.39,overcast clouds
207,Erenhot,CN,43.6475,111.9767,67.68,34,79,7.36,broken clouds
208,Emerald,AU,-23.5333,148.1667,53.35,52,0,7.05,clear sky
209,Silver City,US,32.7701,-108.2803,87.76,13,1,18.01,clear sky
210,Clyde River,CA,70.4692,-68.5914,35.22,100,100,0.94,overcast clouds
211,Tambilil,PH,5.9622,124.6697,78.6,78,95,2.89,overcast clouds
212,Veraval,IN,20.9,70.3667,84.78,70,15,10.49,few clouds
213,Manggar,ID,-2.8833,108.2667,81.97,76,94,10.33,overcast clouds
214,Katobu,ID,-4.9408,122.5276,74.3,88,58,3.62,broken clouds
215,Saint-Philippe,RE,-21.3585,55.7679,72.99,86,74,12.68,light rain
216,Scottsboro,US,34.6723,-86.0341,74.5,97,100,4.99,overcast clouds
217,Lagoa,PT,39.05,-27.9833,63.88,89,100,12.59,overcast clouds
218,Dubbo,AU,-32.25,148.6167,39.33,81,27,8.05,scattered clouds
219,Karratha,AU,-20.7377,116.8463,74.43,59,80,8.48,broken clouds
220,Trotwood,US,39.7973,-84.3113,83.43,63,75,11.54,broken clouds
221,Calbuco,CL,-41.768,-73.1273,49.21,77,100,17.47,overcast clouds
222,Petrovsk-Zabaykalskiy,RU,51.273,108.843,41.81,96,100,3.36,overcast clouds
223,Kununurra,AU,-15.7667,128.7333,55.38,71,25,1.14,scattered clouds
224,Guimar,ES,28.3039,-16.4325,63.81,78,16,4.0,few clouds
225,Airai,TL,-8.9266,125.4092,55.11,78,54,2.71,broken clouds
226,Vila,PT,42.0304,-8.1588,58.75,82,20,3.83,few clouds
227,Godhra,IN,22.75,73.6333,84.0,69,44,13.78,scattered clouds
228,Roebourne,AU,-20.7833,117.1333,74.12,58,69,8.5,broken clouds
229,Andenes,NO,69.3143,16.1194,55.47,71,90,4.61,overcast clouds
230,Lukulu,ZM,-14.3707,23.242,54.52,58,96,6.08,overcast clouds
231,Abu Samrah,SY,35.3029,37.1841,67.3,42,0,7.47,clear sky
232,Makushino,RU,55.2103,67.2442,55.24,52,1,5.77,clear sky
233,Severo-Kurilsk,RU,50.6789,156.125,42.64,94,100,10.29,overcast clouds
234,Kandrian,PG,-6.2167,149.55,78.35,87,55,3.27,light rain
235,Sitka,US,57.0531,-135.33,53.49,71,90,4.61,light rain
236,Nantucket,US,41.2835,-70.0995,82.51,82,1,10.36,clear sky
237,Caala,AO,-12.8525,15.5606,53.65,50,30,1.95,scattered clouds
238,Waiouru,NZ,-39.4833,175.6667,49.62,82,100,3.76,overcast clouds
239,Alzamay,RU,55.5562,98.6644,45.54,76,45,5.66,scattered clouds
240,Agadez,NE,19.75,10.25,91.45,10,100,10.74,overcast clouds
241,Sarankhola,BD,22.3082,89.7897,84.38,82,100,10.27,overcast clouds
242,Meulaboh,ID,4.1363,96.1285,74.44,88,100,4.9,overcast clouds
243,Cabo Rojo,PR,18.0866,-67.1457,83.17,77,100,1.01,overcast clouds
244,Moosomin,CA,50.1333,-101.6677,70.65,35,31,21.56,scattered clouds
245,Meridian,US,43.6121,-116.3915,76.05,27,1,1.99,clear sky
246,Windhoek,NA,-22.5594,17.0832,51.12,48,0,1.99,clear sky
247,Marsh Harbour,BS,26.5412,-77.0636,79.95,75,100,14.41,overcast clouds
248,Vao,NC,-22.6667,167.4833,70.03,67,100,16.91,overcast clouds
249,The Valley,AI,18.217,-63.0578,81.1,78,40,14.97,scattered clouds
250,Pevek,RU,69.7008,170.3133,47.37,68,35,12.77,scattered clouds
251,Bereda,ES,43.2686,-7.5406,56.95,99,63,3.74,broken clouds
252,Ola,RU,59.5833,151.2833,47.59,77,47,2.44,scattered clouds
253,Oranjestad,AW,12.524,-70.027,82.9,77,20,8.01,few clouds
254,Vangaindrano,MG,-23.35,47.6,65.8,79,98,11.21,overcast clouds
255,Urucui,BR,-7.2294,-44.5561,83.37,39,64,3.67,broken clouds
256,Xichang,CN,27.8964,102.2634,65.07,97,98,1.95,light rain
257,Puerto Escondido,MX,15.85,-97.0667,85.62,75,50,8.84,scattered clouds
258,Matagami,CA,49.7502,-77.6328,83.82,38,56,9.46,broken clouds
259,Maltahohe,NA,-24.8333,16.9833,50.11,38,0,8.66,clear sky
260,Codrington,AU,-38.2667,141.9667,56.16,63,100,21.32,overcast clouds
261,La Ronge,CA,55.1001,-105.2842,62.02,54,100,9.84,overcast clouds
262,Canyon Lake,US,29.8752,-98.2625,89.2,70,35,4.0,scattered clouds
263,Castro,BR,-24.7911,-50.0119,60.78,72,95,3.87,overcast clouds
264,Camacha,PT,33.0833,-16.3333,63.36,72,75,11.5,broken clouds
265,Hadejia,NG,12.4498,10.0444,89.24,34,77,8.03,broken clouds
266,Klaksvik,FO,62.2266,-6.589,49.12,98,100,15.05,overcast clouds
267,Haines Junction,CA,60.7522,-137.5108,52.88,65,100,5.48,overcast clouds
268,Antalaha,MG,-14.9003,50.2788,70.52,88,13,8.37,few clouds
269,Oblivskaya,RU,48.5362,42.5014,59.59,85,99,6.78,overcast clouds
270,Ixtapa,MX,20.7,-105.2,85.23,70,40,11.5,scattered clouds
271,Ohara,JP,35.25,140.3833,72.95,89,95,0.96,overcast clouds
272,Kimbe,PG,-5.5502,150.1429,78.58,85,79,2.06,light rain
273,Freeport,US,40.6576,-73.5832,95.88,59,1,1.99,clear sky
274,Sirnak,TR,37.5228,42.4594,58.51,29,0,5.12,clear sky
275,Tarakan,ID,3.3,117.6333,77.95,87,100,7.92,overcast clouds
276,Dicabisagan,PH,17.0818,122.4157,80.01,85,100,3.78,overcast clouds
277,Shimoda,JP,34.6667,138.95,71.17,85,93,7.25,overcast clouds
278,Ayan,RU,56.45,138.1667,41.14,91,99,4.36,overcast clouds
279,Namie,JP,37.4833,141.0,70.34,86,100,1.72,overcast clouds
280,Flinders,AU,-34.5833,150.8552,55.06,84,86,6.53,overcast clouds
281,Socorro,US,31.6546,-106.3033,101.37,10,1,25.55,clear sky
282,San Joaquin,US,37.9333,-121.3011,92.79,29,1,12.66,clear sky
283,Mar Del Plata,AR,-38.0023,-57.5575,54.12,69,0,1.01,clear sky
284,Sterling,US,39.0062,-77.4286,93.42,48,75,1.01,broken clouds
285,Front Royal,US,38.9182,-78.1944,91.49,57,40,4.61,scattered clouds
286,Mackay,AU,-21.15,149.2,66.04,80,88,13.91,overcast clouds
287,Pospelikha,RU,51.95,81.7667,53.92,77,1,7.27,clear sky
288,Sayyan,YE,15.1718,44.3244,64.72,49,14,3.56,few clouds
289,Geraldton,AU,-28.7667,114.6,55.81,82,93,18.59,overcast clouds
290,Sao Joao Da Barra,BR,-21.6403,-41.0511,74.44,85,100,14.54,overcast clouds
291,Zhigansk,RU,66.7697,123.3711,50.7,44,100,9.69,overcast clouds
292,Cherskiy,RU,68.75,161.3,66.52,37,100,19.84,overcast clouds
293,Vardo,NO,70.3705,31.1107,37.6,74,6,3.65,clear sky
294,Qaanaaq,GL,77.484,-69.3632,40.42,79,53,5.48,broken clouds
295,Jardim,BR,-21.4803,-56.1381,82.08,36,98,0.87,overcast clouds
296,Kashi,CN,39.4547,75.9797,72.61,28,40,6.73,scattered clouds
297,Zavallya,UA,48.2135,30.0156,57.6,90,100,4.81,overcast clouds
298,Monreal,PH,12.644,123.6648,81.23,79,100,3.44,overcast clouds
299,Cap Malheureux,MU,-19.9842,57.6142,71.47,84,10,1.99,clear sky
300,Excelsior Springs,US,39.3392,-94.2261,85.08,58,1,8.05,clear sky
301,Taitung,TW,22.7583,121.1444,78.84,83,100,2.48,light rain
302,Provideniya,RU,64.3833,-173.3,44.71,61,75,4.47,broken clouds
303,Princeville,CA,45.7668,-61.2985,61.32,65,85,7.36,overcast clouds
304,Dongsheng,CN,39.8161,109.9776,65.46,47,100,12.88,light rain
305,San Quintin,MX,30.4833,-115.95,66.11,63,14,11.99,few clouds
306,Kavieng,PG,-2.5744,150.7967,82.29,75,63,6.2,light rain
307,Chumikan,RU,54.7183,135.315,39.43,87,97,2.84,overcast clouds
308,Kuandian,CN,40.7286,124.7847,58.57,89,0,2.42,clear sky
309,Lokhvytsya,UA,50.3678,33.2602,55.47,95,98,5.66,overcast clouds
310,De Aar,ZA,-30.6497,24.0123,45.43,40,0,7.74,clear sky
311,Groa,NO,62.65,8.7167,51.89,96,98,3.47,overcast clouds
312,Comodoro Rivadavia,AR,-45.8667,-67.5,49.86,57,0,11.5,clear sky
313,Carnarvon,AU,-24.8667,113.6333,60.87,67,90,9.22,overcast clouds
314,Suoyarvi,RU,62.0833,32.35,54.68,73,95,8.95,overcast clouds
315,Kloulklubed,PW,7.0419,134.2556,77.5,79,100,6.96,light rain
316,Betafo,MG,-19.8333,46.85,52.75,89,100,7.49,overcast clouds
317,Necochea,AR,-38.5473,-58.7368,50.04,56,100,6.85,overcast clouds
318,Rockland,US,41.1668,-74.0496,94.35,46,11,8.43,few clouds
319,Hambantota,LK,6.1241,81.1185,79.68,85,100,14.67,overcast clouds
320,Faya,SA,18.3851,42.4509,70.32,49,6,1.86,clear sky
321,Chegutu,ZW,-18.1302,30.1407,52.54,66,91,10.33,overcast clouds
322,Whitehorse,CA,60.7161,-135.0538,55.02,93,100,10.0,light rain
323,Kabinda,CD,-6.1333,24.4833,71.06,60,23,3.96,few clouds
324,Touros,BR,-5.1989,-35.4608,76.1,85,14,12.84,few clouds
325,Hami,CN,42.8,93.45,64.65,16,39,13.2,scattered clouds
326,Sinnamary,GF,5.3833,-52.95,76.06,89,100,7.58,overcast clouds
327,Coquimbo,CL,-29.9533,-71.3436,55.13,87,90,5.7,overcast clouds
328,Port Moresby,PG,-9.4431,147.1797,75.87,89,100,7.96,overcast clouds
329,Vagur,FO,61.4732,-6.8119,48.76,97,100,16.98,overcast clouds
330,Paita,PE,-5.0892,-81.1144,69.57,76,90,15.35,overcast clouds
331,Nichinan,JP,31.6,131.3667,66.76,90,100,5.73,overcast clouds
332,Tazmalt,DZ,36.3868,4.3989,66.31,87,22,4.61,few clouds
333,Ambilobe,MG,-13.2,49.05,71.06,89,84,3.36,broken clouds
334,Nanortalik,GL,60.1432,-45.2371,44.83,72,100,15.12,overcast clouds
335,Ileza,RU,61.0533,43.9002,60.04,71,83,8.46,broken clouds
336,Centralia,US,46.7162,-122.9543,54.37,81,75,8.05,light rain
337,San Policarpo,PH,12.1791,125.5072,77.92,87,100,3.98,overcast clouds
338,Khargupur,IN,27.3833,81.9833,89.29,33,7,5.93,clear sky
339,Dorogobuzh,RU,54.915,33.2972,56.43,90,92,4.5,overcast clouds
340,Atar,MR,20.5169,-13.0499,96.76,15,9,21.32,clear sky
341,Kysyl-Syr,RU,63.8986,122.7617,48.7,88,100,7.85,light rain
342,Sistranda,NO,63.7256,8.834,54.9,94,63,13.85,broken clouds
343,Tiarei,PF,-17.5333,-149.3333,86.02,75,79,11.27,broken clouds
344,Conde,BR,-7.2597,-34.9075,72.86,100,90,9.82,overcast clouds
345,Balurghat,IN,25.2167,88.7667,85.6,71,68,8.03,broken clouds
346,Codo,BR,-4.4553,-43.8856,78.33,68,17,2.24,few clouds
347,Garwolin,PL,51.8975,21.6147,67.71,80,77,5.28,broken clouds
348,Kodiak,US,57.79,-152.4072,55.63,53,14,6.8,few clouds
349,Lensk,RU,60.7253,114.9278,47.62,61,45,11.3,scattered clouds
350,Beringovskiy,RU,63.05,179.3167,34.97,98,100,4.29,light rain
351,Margate,GB,51.3813,1.3862,63.03,85,57,1.99,broken clouds
352,Visby,SE,57.6409,18.296,51.94,87,6,2.3,clear sky
353,La Asuncion,VE,11.0333,-63.8628,83.93,74,97,16.73,overcast clouds
354,Akodia,IN,23.3833,76.6,85.77,51,59,7.83,broken clouds
355,Auki,SB,-8.7676,160.7034,82.18,74,8,2.95,clear sky
356,Karpogory,RU,64.0019,44.4451,38.93,59,35,7.83,scattered clouds
357,Tazovskiy,RU,67.4667,78.7,32.31,84,98,8.77,overcast clouds
358,Suba,PH,10.8438,121.0102,83.53,74,100,6.4,overcast clouds
359,Anloga,GH,5.7947,0.8973,81.39,80,13,13.6,few clouds
360,Hamilton,US,39.1834,-84.5333,84.83,65,1,1.01,clear sky
361,Tilichiki,RU,60.4667,166.1,37.6,97,100,6.82,light rain
362,Linxia,CN,35.6003,103.2064,54.12,73,100,3.56,overcast clouds
363,Xingyi,CN,24.1877,102.817,60.67,97,85,2.82,moderate rain
364,Tadine,NC,-21.55,167.8833,72.75,58,87,12.44,overcast clouds
365,Pombas,CV,17.1503,-25.0201,71.38,81,14,14.36,few clouds
366,Basco,PH,20.4487,121.9702,83.66,75,100,10.6,overcast clouds
367,Deer Lake,CA,49.1667,-57.4316,60.04,50,25,4.72,scattered clouds
368,Labytnangi,RU,66.6572,66.4183,33.49,72,7,6.02,clear sky
369,Baykit,RU,61.67,96.37,36.39,67,56,3.06,broken clouds
370,Chervona Sloboda,UA,49.3789,32.1464,57.36,87,72,8.14,broken clouds
371,Kismayo,SO,-0.3582,42.5454,76.84,84,60,14.79,light rain
372,Viedma,AR,-40.8135,-62.9967,49.86,43,98,10.47,overcast clouds
373,Bengkulu,ID,-3.8004,102.2655,73.62,89,29,3.78,scattered clouds
374,Northam,GB,51.0333,-4.2167,57.29,93,19,3.47,few clouds
375,Bosaso,SO,11.2842,49.1816,93.45,37,0,13.13,clear sky
376,Itoman,JP,26.1247,127.6694,75.58,94,75,9.22,light rain
377,Medina Del Campo,ES,41.3124,-4.9141,65.14,61,9,9.57,clear sky
378,Tromso,NO,69.6496,18.957,50.02,50,0,8.05,clear sky
379,Luena,AO,-11.7833,19.9167,53.56,65,40,4.56,scattered clouds
380,Novyy Urengoy,RU,66.0833,76.6333,34.2,86,57,7.58,broken clouds
381,Faanui,PF,-16.4833,-151.75,81.03,76,77,11.07,broken clouds
382,Bentiu,SS,9.2333,29.8333,78.53,73,54,0.72,broken clouds
383,Harnosand,SE,62.6323,17.9379,59.02,83,95,4.5,overcast clouds
384,Victor Harbor,AU,-35.5667,138.6167,62.47,74,88,3.0,overcast clouds
385,Tafresh,IR,34.692,50.013,67.28,20,0,6.89,clear sky
386,Lingao,CN,19.9103,109.6859,78.1,89,52,5.5,broken clouds
387,Sorland,NO,67.667,12.6934,52.38,82,99,5.57,overcast clouds
388,Christchurch,NZ,-43.5333,172.6333,49.91,97,90,3.0,mist
389,Nishihara,JP,26.1842,127.7558,74.86,94,75,7.16,broken clouds
390,Balkhash,KZ,46.844,74.9804,61.56,41,25,17.78,scattered clouds
391,Millet,CA,53.1001,-113.4687,66.83,39,40,7.99,scattered clouds
392,Talnakh,RU,69.4865,88.3972,31.42,98,100,4.41,light snow
393,Srednekolymsk,RU,67.45,153.6833,44.76,71,100,15.93,light rain
394,Akyab,MM,20.15,92.9,83.03,84,100,6.51,overcast clouds
395,Ribeira Brava,PT,32.65,-17.0667,66.83,76,2,4.83,clear sky
396,Umm Kaddadah,SD,13.6017,26.6876,87.71,13,2,10.25,clear sky
397,Elverum,NO,60.8819,11.5623,60.06,90,100,1.92,overcast clouds
398,Angoche,MZ,-16.2325,39.9086,72.93,72,93,12.73,overcast clouds
399,Sao Filipe,CV,14.8961,-24.4956,75.36,70,22,10.29,few clouds
400,Jiaozuo,CN,35.2397,113.2331,83.62,38,100,7.96,overcast clouds
401,Casablanca,MA,33.5928,-7.6192,71.82,73,9,11.01,clear sky
402,Trinidad,BO,-14.8333,-64.9,81.32,58,80,3.15,broken clouds
403,Barra Velha,BR,-26.6322,-48.6847,67.91,94,100,7.25,light rain
404,Petropavl,KZ,54.8753,69.1628,54.72,54,8,6.71,clear sky
405,Churapcha,RU,62.0025,132.4325,61.75,63,98,9.42,overcast clouds
406,Ichihara,JP,35.5167,140.0833,73.11,85,100,2.37,overcast clouds
407,Nhulunbuy,AU,-12.2333,136.7667,77.61,83,90,5.75,overcast clouds
408,Hearst,CA,49.6835,-83.6665,81.72,51,100,13.15,overcast clouds
409,Dukat,RU,62.55,155.55,44.58,78,90,7.49,overcast clouds
410,Rocha,UY,-34.4833,-54.3333,46.89,89,33,3.83,scattered clouds
411,Glace Bay,CA,46.1969,-59.957,61.79,80,64,1.99,broken clouds
412,Balikpapan,ID,-1.2675,116.8289,76.55,88,96,3.94,light rain
413,Emba,KZ,48.8264,58.1442,64.51,51,100,6.08,overcast clouds
414,Fallon,US,39.4735,-118.7774,93.07,7,20,19.57,few clouds
415,Port-Gentil,GA,-0.7193,8.7815,78.53,87,60,8.52,broken clouds
416,Nome,US,64.5011,-165.4064,38.16,80,90,11.5,overcast clouds
417,Port-Cartier,CA,50.0334,-66.8654,56.75,56,74,8.52,broken clouds
418,Batemans Bay,AU,-35.7167,150.1833,49.91,79,100,4.45,overcast clouds
419,Kondratovo,RU,57.9804,56.1066,57.49,51,0,11.18,clear sky
420,Kolyshley,RU,52.7005,44.5367,59.13,91,19,3.89,few clouds
421,Heze,CN,35.2431,115.4411,81.52,41,100,11.32,overcast clouds
422,Semirom,IR,31.4167,51.5667,64.87,19,0,4.0,clear sky
423,Ugoofaaru,MV,5.6667,73.0,82.49,77,99,15.9,overcast clouds
424,Sembakung,ID,3.8167,117.25,72.97,99,100,1.72,moderate rain
425,Talcahuano,CL,-36.7167,-73.1167,51.48,71,0,2.3,clear sky
426,Ucluelet,CA,48.9329,-125.5528,52.09,90,100,12.62,light rain
427,Kirensk,RU,57.7853,108.1119,43.74,81,64,3.44,broken clouds
428,Ossora,RU,59.2353,163.0719,39.97,95,100,6.51,overcast clouds
429,Shieli,KZ,44.1667,66.75,75.79,44,0,5.14,clear sky
430,Saint-Pierre,RE,-21.3393,55.4781,73.08,88,75,25.32,heavy intensity rain
431,San Isidro,PE,-12.1167,-77.05,65.79,87,90,9.95,overcast clouds
432,Rawson,AR,-43.3002,-65.1023,50.58,48,48,20.65,scattered clouds
433,Lata,PT,40.1629,-8.3327,61.92,92,0,2.15,clear sky
434,Cave Spring,US,37.2276,-80.0128,89.26,55,90,1.01,overcast clouds
435,Koumra,TD,8.9126,17.5539,77.99,65,14,4.18,few clouds
436,Ayr,GB,55.4627,-4.6339,51.69,81,0,0.0,clear sky
437,Eenhana,NA,-17.4667,16.3333,56.37,47,22,9.01,few clouds
438,Mount Gambier,AU,-37.8333,140.7667,56.62,60,100,16.37,overcast clouds
439,Chimbote,PE,-9.0853,-78.5783,66.9,78,79,7.11,broken clouds
440,Marrakesh,MA,31.6315,-8.0083,80.67,47,0,9.22,clear sky
441,Aksu,CN,41.1231,80.2644,73.47,29,57,3.15,broken clouds
442,Bellary,IN,15.15,76.9333,77.49,76,45,10.42,scattered clouds
443,Baculin,PH,7.4525,126.5842,77.49,86,99,4.12,overcast clouds
444,Mao,ES,39.8885,4.2658,63.16,82,0,0.0,clear sky
445,Berlevag,NO,70.8578,29.0864,39.25,72,6,1.97,clear sky
446,Porto Novo,BJ,6.4965,2.6036,79.77,81,88,7.18,overcast clouds
447,Palmer,US,42.1584,-72.3287,92.32,41,75,1.01,broken clouds
448,Sabya,SA,17.1495,42.6254,86.52,65,4,3.24,clear sky
449,Havre-Saint-Pierre,CA,50.2334,-63.5986,50.86,67,85,11.41,overcast clouds
450,Vanavara,RU,60.34,102.2797,39.78,62,64,3.87,broken clouds
451,Fontem,CM,5.4685,9.8818,67.1,95,100,1.43,overcast clouds
452,Dingle,PH,10.9995,122.6711,76.44,87,100,2.21,overcast clouds
453,Tsalka,GE,41.5946,44.0891,40.53,92,32,6.6,scattered clouds
454,Vigeland,NO,58.0844,7.305,59.41,82,68,8.21,broken clouds
455,George Town,MY,5.4112,100.3354,79.9,90,20,2.39,few clouds
456,San Pedro,PH,14.35,121.0167,82.35,88,75,1.7,broken clouds
457,Arcata,US,40.8665,-124.0828,70.66,65,1,8.01,clear sky
458,Moerai,PF,-22.4333,-151.3333,73.8,68,79,14.9,broken clouds
459,Kieta,PG,-6.2167,155.6333,81.21,82,97,4.59,light rain
460,Katherine,AU,-14.4667,132.2667,61.12,72,55,5.53,broken clouds
461,Arawa,PG,-6.2132,155.5367,80.69,85,96,3.02,light rain
462,Ryuo,JP,35.65,138.5,68.59,87,100,1.99,overcast clouds
463,Saryozek,KZ,44.3583,77.9753,57.79,51,98,3.13,overcast clouds
464,Manakara,MG,-22.1333,48.0167,66.04,89,65,8.55,moderate rain
465,Turukhansk,RU,65.8167,87.9833,32.54,88,84,5.99,broken clouds
466,Aksarka,RU,66.5606,67.7975,33.8,68,14,3.24,few clouds
467,Never,FR,46.9896,3.159,62.44,88,100,3.76,overcast clouds
468,Yeppoon,AU,-23.1333,150.7333,53.38,72,44,8.97,scattered clouds
469,Dryden,CA,49.7833,-92.7503,75.49,78,90,9.22,overcast clouds
470,Nuuk,GL,64.1835,-51.7216,43.41,93,90,9.22,light snow
471,Ostrovnoy,RU,68.0531,39.5131,38.34,93,7,6.35,clear sky
472,Bridlington,GB,54.0831,-0.1919,56.89,85,24,3.02,few clouds
473,Petropavlovsk-Kamchatskiy,RU,53.0452,158.6483,43.39,100,90,1.88,overcast clouds
474,San Francisco,US,37.7749,-122.4194,89.38,61,20,4.0,few clouds
475,Khandyga,RU,62.6667,135.6,57.63,56,100,4.52,overcast clouds
476,Ageyevo,RU,54.1588,36.4693,55.67,98,100,5.66,overcast clouds
477,Mogadishu,SO,2.0371,45.3438,78.91,88,48,20.56,scattered clouds
478,Techiman,GH,7.5862,-1.9414,72.41,90,23,5.21,light rain
479,Surgut,RU,61.25,73.4167,42.98,75,0,4.34,clear sky
480,Cayenne,GF,4.9333,-52.3333,80.1,86,0,6.78,clear sky
481,Manono,CD,-7.3,27.4167,74.73,54,91,7.4,overcast clouds
482,Nazarovo,RU,56.0064,90.3914,53.55,90,100,9.46,overcast clouds
483,Yavatmal,IN,20.4,78.1333,82.36,61,94,6.4,overcast clouds
484,Pocatello,US,42.8713,-112.4455,76.68,21,1,5.99,clear sky
485,Moche,PE,-8.1711,-79.0092,66.38,88,90,6.55,overcast clouds
486,Griffith,US,41.5284,-87.4237,88.09,52,40,7.0,scattered clouds
487,Mildura,AU,-34.2,142.15,49.96,81,62,12.66,broken clouds
488,Altagracia De Orituco,VE,9.8601,-66.3814,77.23,78,94,3.85,overcast clouds
489,Novouzensk,RU,50.4592,48.1431,60.4,79,47,5.37,scattered clouds
490,Mananara,MG,-16.1667,49.7667,70.72,85,87,8.37,overcast clouds
491,Pachino,IT,36.7186,15.0907,72.59,67,55,7.99,broken clouds
492,Khlevnoye,RU,52.1951,39.0932,55.42,95,13,6.06,few clouds
493,Konosha,RU,60.9736,40.257,57.61,82,69,5.14,broken clouds
494,Kenai,US,60.5544,-151.2583,69.03,53,1,12.66,clear sky
495,Birjand,IR,32.8663,59.2211,75.67,22,0,6.91,clear sky
496,Nchelenge,ZM,-9.3451,28.734,67.77,62,96,8.95,overcast clouds
497,Klaeng,TH,12.7797,101.6483,83.16,87,100,6.2,light rain
498,Melle,DE,52.2,8.35,61.25,87,97,6.02,overcast clouds
499,Teguldet,RU,57.3064,88.1667,55.04,94,100,9.1,overcast clouds
500,Marzuq,YE,14.4,46.4667,81.9,34,29,4.7,scattered clouds
501,Zyryanovsk,KZ,49.7386,84.2719,44.35,77,0,2.66,clear sky
502,Nueva Guinea,NI,11.6876,-84.4562,81.36,76,66,12.39,broken clouds
503,Zlobin,HR,45.2924,14.6541,59.38,82,0,4.68,clear sky
504,Killarney,IE,52.05,-9.5167,49.24,84,100,3.29,overcast clouds
505,Plettenberg Bay,ZA,-34.0527,23.3716,67.95,27,1,11.01,clear sky
506,Noshiro,JP,40.2039,140.0242,63.54,90,98,5.61,overcast clouds
507,Westport,US,41.1415,-73.3579,93.27,53,1,3.0,clear sky
508,Tonantins,BR,-2.8731,-67.8022,77.94,92,47,3.0,scattered clouds
509,Gashua,NG,12.871,11.0482,87.89,41,84,11.86,broken clouds
510,Kaitangata,NZ,-46.2817,169.8464,47.44,79,89,3.62,overcast clouds
511,Namatanai,PG,-3.6667,152.4333,81.05,81,100,3.76,light rain
512,Ambalema,CO,4.7841,-74.7627,89.83,67,59,2.89,broken clouds
513,Grajau,BR,-5.8194,-46.1386,79.29,61,41,2.98,scattered clouds
514,Bethanien,NA,-26.502,17.1583,55.92,35,0,15.23,clear sky
515,Medea,DZ,36.2642,2.7539,57.65,94,3,3.71,clear sky
516,Caravelas,BR,-17.7125,-39.2481,72.84,85,6,4.81,clear sky
517,Port Hardy,CA,50.6996,-127.4199,54.21,66,99,10.49,overcast clouds
518,Nailon,PH,11.0521,124.0385,79.54,82,100,5.48,overcast clouds
519,Beinamar,TD,8.6698,15.3813,76.77,70,75,5.12,broken clouds
520,Cerritos,US,33.8583,-118.0648,85.64,62,1,10.0,clear sky
521,Palamos,ES,41.8484,3.1291,67.98,20,47,7.7,scattered clouds
522,Datong,CN,40.0936,113.2914,67.28,38,100,2.37,overcast clouds
523,Saint-Louis,SN,16.3333,-15.0,95.74,14,1,1.81,clear sky
524,Lochem,NL,52.1592,6.4111,60.73,95,0,6.78,clear sky
525,Quepos,CR,9.4236,-84.1652,88.05,76,68,4.54,broken clouds
526,Husavik,IS,66.0449,-17.3389,50.07,71,77,5.3,broken clouds
527,Malakal,SS,9.5334,31.6605,78.03,66,98,3.53,overcast clouds
528,Lucea,JM,18.451,-78.1736,78.85,77,33,12.17,scattered clouds
529,Boda,CF,4.3189,17.4695,68.58,96,84,0.38,broken clouds
530,Platteville,US,42.7342,-90.4785,88.65,51,75,18.41,broken clouds
531,Ketchikan,US,55.3422,-131.6461,53.58,93,90,13.8,mist
532,San Simon De La Laguna,MX,19.3,-100.0833,78.24,71,100,3.76,light rain
533,Clifton,US,40.8584,-74.1638,95.32,42,20,4.0,few clouds
534,Vostochnyy,RU,55.8167,37.8667,61.11,91,93,4.29,overcast clouds
535,Zhaoyang,CN,42.682,126.0305,56.34,85,29,3.65,scattered clouds
536,Balclutha,NZ,-46.2339,169.75,46.38,80,97,1.5,overcast clouds
537,Sibu,MY,2.3,111.8167,72.39,98,100,2.48,overcast clouds
538,San Patricio,US,28.017,-97.5169,93.06,69,9,16.44,clear sky
539,Uvarovka,RU,55.5278,35.6061,56.08,95,100,3.2,overcast clouds
540,Goderich,CA,43.7501,-81.7165,71.71,70,12,10.63,few clouds
541,Mosjoen,NO,65.836,13.1908,58.57,86,100,4.63,light rain
542,Ritchie,ZA,-29.038,24.6028,46.99,38,0,9.84,clear sky
543,Caucaia,BR,-3.7361,-38.6531,82.04,73,0,5.44,clear sky
544,Chisindia,RO,46.2833,22.1,59.79,92,0,3.29,clear sky
545,Katsuura,JP,35.1333,140.3,73.11,90,99,2.15,overcast clouds
546,Ust-Ilimsk,RU,58.0006,102.6619,44.02,61,50,7.81,scattered clouds
547,Kirgiz-Miyaki,RU,53.6324,54.7979,54.9,68,6,3.13,clear sky
548,Aden,YE,12.7794,45.0367,91.81,53,4,1.43,clear sky
549,Masuguru,TZ,-11.3667,38.4167,66.34,66,13,3.38,few clouds
550,Atambua,ID,-9.1061,124.8925,68.2,85,35,4.97,scattered clouds
551,Biltine,TD,14.5333,20.9167,89.65,17,80,3.74,broken clouds
552,Horsham,GB,51.064,-0.3272,62.31,86,0,3.38,clear sky
553,Yerbogachen,RU,61.2767,108.0108,41.25,59,2,10.89,clear sky
554,Maceio,BR,-9.6658,-35.7353,78.24,83,20,8.12,few clouds
555,Kedrovyy,RU,56.1667,91.8167,54.01,92,98,10.27,overcast clouds
556,Carutapera,BR,-1.195,-46.02,75.24,93,15,5.39,heavy intensity rain
557,Isangel,VU,-19.55,169.2667,77.11,61,75,11.36,broken clouds
558,Peniche,PT,39.3558,-9.3811,62.08,84,0,17.13,clear sky
559,Shizunai,JP,42.3339,142.3669,57.69,82,88,2.48,overcast clouds
560,Jaisinghnagar,IN,23.7,81.3833,87.49,46,60,7.36,broken clouds
561,Waynesville,US,35.4887,-82.9887,78.73,77,100,1.01,overcast clouds
562,Lundazi,ZM,-12.2929,33.1782,56.14,76,39,9.19,scattered clouds
563,Chanderi,IN,24.7167,78.1333,88.25,41,73,14.07,broken clouds
564,Liaqatabad,PK,31.5647,74.3029,89.64,45,1,4.63,haze
565,Kuching,MY,1.55,110.3333,73.62,100,20,2.3,few clouds
566,Birao,CF,10.2849,22.7882,78.78,63,43,3.53,light rain
567,Washougal,US,45.5826,-122.3534,64.83,59,90,9.22,overcast clouds
568,Ponta Delgada,PT,37.7333,-25.6667,65.12,88,20,5.75,few clouds
569,Gondar,ET,12.6,37.4667,68.41,29,96,7.9,overcast clouds
570,Almaznyy,RU,48.0448,40.045,57.34,92,61,8.12,light rain
571,Pozo Colorado,PY,-23.4923,-58.7972,73.26,72,97,5.46,overcast clouds
572,San Francisco Menendez,SV,13.8431,-90.0158,82.81,73,93,4.59,overcast clouds
573,Punta De Piedra,VE,7.6176,-71.4916,73.17,98,100,2.04,overcast clouds
574,Puerto Del Rosario,ES,28.5004,-13.8627,69.55,68,100,12.66,overcast clouds
575,Galesong,ID,-5.3166,119.3661,71.62,69,11,4.88,few clouds
576,Thap Khlo,TH,16.16,100.5966,79.45,80,100,2.35,light rain
577,Sijunjung,ID,-0.6876,100.9537,68.41,85,97,2.26,overcast clouds
578,Awjilah,LY,29.1081,21.2869,75.65,30,0,10.02,clear sky
579,Reading,GB,51.4562,-0.9711,63.01,86,10,4.03,clear sky
580,Ormara,PK,25.2088,64.6357,83.17,77,41,9.1,scattered clouds
581,Puqi,CN,29.7167,113.8833,70.56,74,99,3.15,overcast clouds
582,Pak Phanang,TH,8.3511,100.202,80.02,83,100,8.95,overcast clouds
583,Saint-Augustin,CA,51.226,-58.6502,57.13,47,55,7.43,broken clouds
584,Fairbanks,US,64.8378,-147.7164,69.76,42,90,16.11,light rain
585,Port Augusta,AU,-32.5,137.7667,55.71,70,5,15.48,clear sky
586,Sarnen,CH,46.8985,8.2507,61.54,90,90,6.91,moderate rain
587,Lerwick,GB,60.1545,-1.1494,48.2,83,67,4.97,broken clouds
588,Nelson Bay,AU,-32.7167,152.15,48.96,88,20,5.86,few clouds
589,Grand Gaube,MU,-20.0064,57.6608,75.6,84,13,1.99,few clouds
590,Asheville,US,35.6009,-82.554,82.92,75,20,1.01,few clouds
591,Elk City,US,35.412,-99.4043,86.49,51,1,16.11,clear sky
592,Durres,AL,41.3231,19.4414,69.98,73,99,5.61,overcast clouds
593,Noormarkku,FI,61.5927,21.8685,55.18,94,0,4.09,clear sky
594,Shakawe,BW,-18.3667,21.85,51.04,57,0,6.4,clear sky
595,Padang,ID,-0.9492,100.3543,75.56,79,79,3.87,broken clouds
596,Pangody,RU,65.85,74.4859,33.71,76,36,8.05,scattered clouds
597,Buraydah,SA,26.326,43.975,89.6,11,5,11.61,clear sky
598,Krasnovishersk,RU,60.4078,57.082,53.71,75,84,2.89,broken clouds
599,Kamaishi,JP,39.2667,141.8833,67.89,69,100,5.17,overcast clouds
600,Qitaihe,CN,45.8,130.85,59.76,73,25,0.54,scattered clouds
601,Bollnas,SE,61.3482,16.3946,60.13,94,98,1.07,light rain
602,Klamath Falls,US,42.2249,-121.7817,71.87,30,1,7.0,clear sky
603,Gambo,CF,4.6482,22.2633,68.95,97,47,0.72,scattered clouds
604,Saint-Joseph,RE,-21.3667,55.6167,71.98,87,66,11.59,light rain
605,Nioro,GM,13.35,-15.75,80.76,62,0,13.06,clear sky
606,Conceicao Da Barra,BR,-18.5933,-39.7322,71.78,87,29,4.16,scattered clouds
607,Puerto Quijarro,BO,-17.7833,-57.7667,84.09,36,24,2.24,few clouds
608,Voznesenye,RU,61.0106,35.4781,51.98,84,1,1.52,clear sky
609,Pombia,IT,45.653,8.6336,67.5,92,75,9.22,light rain
610,Mahon,ES,39.8885,4.2658,63.16,82,0,0.0,clear sky
611,Pobe,BJ,6.9801,2.6649,76.05,85,76,3.91,broken clouds
612,Seoul,KR,37.5683,126.9778,67.57,77,75,3.96,broken clouds
613,Hay River,CA,60.8156,-115.7999,49.98,53,75,13.8,broken clouds
614,Atbasar,KZ,51.8,68.3333,55.89,39,88,4.85,overcast clouds
615,Wajir,KE,1.7471,40.0573,77.38,63,17,23.06,few clouds
616,Tubalan,PH,6.495,125.5661,79.57,80,99,2.89,overcast clouds
617,San Carlos De Bariloche,AR,-41.1456,-71.3082,37.87,76,100,7.52,light rain
618,Saldanha,ZA,-33.0117,17.9442,57.25,39,3,23.87,clear sky
619,Sembe,CG,1.6481,14.5806,70.29,97,65,1.3,broken clouds
620,Pavilosta,LV,56.8879,21.1859,55.31,79,58,5.28,broken clouds
621,Port Hedland,AU,-20.3167,118.5667,71.65,35,40,10.36,scattered clouds
622,Nouakchott,MR,18.0858,-15.9785,75.13,55,1,20.22,clear sky
623,Douglas,US,41.3,-96.167,84.97,61,1,5.99,clear sky
624,Manadhoo,MV,5.7667,73.3833,82.24,78,100,15.26,overcast clouds
625,Qui Nhon,VN,13.7667,109.2333,80.67,76,100,6.15,overcast clouds
626,Rosetta,EG,31.4044,30.4164,69.57,67,0,12.39,clear sky
627,Miramar,US,25.9873,-80.2323,88.02,71,75,12.66,broken clouds
628,Yagodnoye,RU,62.55,149.6667,52.34,57,81,6.44,broken clouds
629,Motygino,RU,58.1831,94.7592,54.21,97,100,11.7,light rain
630,Vredendal,ZA,-31.6683,18.5012,69.22,25,0,25.14,clear sky
631,Kitui,KE,-1.367,38.0106,60.28,83,25,4.76,scattered clouds
632,Marsa Matruh,EG,31.3525,27.2453,70.05,66,0,9.6,clear sky
633,Vestmanna,FO,62.1564,-7.1664,47.32,100,90,10.45,drizzle
634,Santa Vitoria Do Palmar,BR,-33.5189,-53.3681,51.3,78,99,5.35,overcast clouds
635,Ust-Shonosha,RU,61.1531,41.343,58.51,81,57,9.42,broken clouds
636,Aksaray,TR,38.3726,34.0254,54.99,48,0,3.11,clear sky
637,Mongagua,BR,-24.0931,-46.6208,76.03,90,83,6.55,broken clouds
638,Horadiz,AZ,39.4488,47.3353,66.97,75,10,5.23,clear sky
639,Aklavik,CA,68.2191,-135.0107,47.12,39,13,8.1,few clouds
640,Felanitx,ES,39.4696,3.1483,67.01,78,4,4.76,clear sky
641,Marshfield,US,44.6689,-90.1718,85.08,39,20,16.11,few clouds
642,Zhanaozen,KZ,43.3,52.8,68.25,52,0,9.08,clear sky
643,Celestun,MX,20.8667,-90.4,84.88,74,95,16.11,overcast clouds
644,Terrasini,IT,38.146,13.0844,73.22,49,0,9.22,clear sky
645,Pacific Grove,US,36.6177,-121.9166,81.07,69,1,11.01,clear sky
646,Moose Factory,CA,51.2585,-80.6094,73.4,68,75,11.5,broken clouds
647,Huangchuan,CN,32.1272,115.0394,72.9,66,100,6.73,overcast clouds
648,Metro,ID,-5.1131,105.3067,73.9,93,79,5.57,broken clouds
649,Jijiga,ET,9.35,42.8,63.93,75,50,9.28,scattered clouds
650,Tuzha,RU,57.6062,47.936,54.9,83,4,2.17,clear sky
651,Salumbar,IN,24.1333,74.05,85.71,54,26,9.98,scattered clouds
652,Rio Gallegos,AR,-51.6226,-69.2181,39.25,65,0,9.22,clear sky
653,Xining,CN,36.6167,101.7667,48.0,85,92,2.33,overcast clouds
654,Kendari,ID,-3.945,122.4989,73.54,94,28,2.89,scattered clouds
655,Ocean City,US,39.2776,-74.5746,92.25,75,4,7.0,clear sky
656,Mbandaka,CD,0.0487,18.2603,69.57,98,97,4.41,overcast clouds
657,Pangkalanbuun,ID,-2.6833,111.6167,73.35,98,78,2.59,broken clouds
658,Walvis Bay,NA,-22.9575,14.5053,76.15,20,0,6.58,clear sky
659,Tavda,RU,58.0425,65.2726,60.46,65,94,4.16,overcast clouds
660,Mangai,CD,-4.05,19.5333,69.22,95,63,1.23,broken clouds
661,Colares,PT,38.7992,-9.4469,62.29,73,0,20.0,clear sky
662,Dhidhdhoo,MV,6.8833,73.1,81.79,80,100,15.66,overcast clouds
663,Kaiyuan,CN,23.6977,103.3037,67.64,93,99,2.21,overcast clouds
664,Vila Velha,BR,-20.3297,-40.2925,73.94,89,0,3.0,clear sky
665,Jiuquan,CN,39.7432,98.5174,57.94,23,5,6.22,clear sky
666,Beira,MZ,-19.8436,34.8389,66.29,94,75,12.66,light rain
667,Harper,LR,4.375,-7.7169,77.76,89,100,10.69,light rain
668,Manokwari,ID,-0.8667,134.0833,78.28,80,100,2.13,overcast clouds
669,Astoria,US,46.1879,-123.8313,56.71,88,90,1.99,moderate rain
670,Lebork,PL,54.5392,17.7501,59.92,67,8,1.97,clear sky
671,Henties Bay,NA,-22.116,14.2845,75.85,45,0,1.86,clear sky
672,Strathaven,GB,55.6771,-4.0668,54.73,82,71,2.39,broken clouds
673,Hebi,CN,35.8992,114.1925,77.31,28,100,4.14,overcast clouds
674,Mersing,MY,2.4312,103.8405,78.06,85,78,5.01,broken clouds
675,Phonhong,LA,18.5007,102.4166,75.56,97,100,2.51,overcast clouds
676,Whitianga,NZ,-36.8333,175.7,58.01,91,100,20.18,light rain
677,Russell,US,32.3502,-85.1999,87.51,83,90,3.47,overcast clouds
678,Kondopoga,RU,62.2057,34.2614,60.48,63,100,9.33,light rain
679,Richards Bay,ZA,-28.783,32.0377,58.53,79,0,7.27,clear sky
680,Cockburn Town,TC,21.4612,-71.1419,82.36,69,40,17.27,scattered clouds
681,Namibe,AO,-15.1961,12.1522,74.07,54,50,8.39,scattered clouds
682,Tevaitoa,PF,-16.7833,-151.5,80.71,76,67,11.25,broken clouds
683,Portland,US,45.5234,-122.6762,64.45,57,90,1.99,overcast clouds
684,Brindisi,IT,40.5833,17.6667,71.78,60,72,5.68,broken clouds
685,Amahai,ID,-3.3333,128.9167,77.18,87,98,3.02,overcast clouds
686,Changping,CN,40.2186,116.2197,73.51,52,100,5.99,light rain
687,Vestmannaeyjar,IS,63.4427,-20.2734,47.68,90,100,17.58,overcast clouds
688,Shenkursk,RU,62.1091,42.896,52.95,86,74,9.57,broken clouds
689,Huanren,CN,41.2647,125.3667,57.31,93,0,0.81,clear sky
690,Chimore,BO,-16.9833,-65.1333,69.31,97,73,2.66,broken clouds
691,Leh,IN,34.1667,77.5833,48.85,31,0,6.04,clear sky
692,Egvekinot,RU,66.3167,-179.1667,37.18,63,8,1.5,clear sky
693,Sanguem,IN,15.2333,74.1667,76.6,92,73,0.74,broken clouds
694,Riyadh,SA,24.6877,46.7219,96.85,13,0,6.91,clear sky
695,Balabac,PH,7.9868,117.0645,82.53,80,100,8.12,overcast clouds
696,Bodmin,GB,50.4715,-4.7243,55.72,87,75,1.83,broken clouds
697,Les Clayes-Sous-Bois,FR,48.8221,1.9868,64.08,83,0,3.69,clear sky
698,Buchanan,LR,5.8808,-10.0467,76.96,84,99,9.08,light rain
699,Locri,IT,38.2414,16.2623,74.32,58,85,7.45,overcast clouds
700,Boddam,GB,57.4667,-1.7833,53.11,83,94,3.06,overcast clouds
701,Tigil,RU,57.8,158.6667,53.8,59,86,5.95,overcast clouds
702,Oussouye,SN,12.485,-16.5469,82.58,82,2,10.89,clear sky
